[
  {"point_id": "AP001", "name": "嘉定路杆塔#12", "point_type": "杆塔", "feeder_id": "F001", "lng": 121.252, "lat": 31.381, "spare_intervals": 0, "distance_m": 0},
  {"point_id": "AP002", "name": "博乐路环网柜", "point_type": "环网柜", "feeder_id": "F001", "lng": 121.248, "lat": 31.379, "spare_intervals": 3, "distance_m": 0},
  {"point_id": "AP003", "name": "城中路开关站", "point_type": "开关站", "feeder_id": "F002", "lng": 121.253, "lat": 31.383, "spare_intervals": 4, "distance_m": 0},
  {"point_id": "AP004", "name": "嘉定新城杆塔#8", "point_type": "杆塔", "feeder_id": "F003", "lng": 121.255, "lat": 31.385, "spare_intervals": 0, "distance_m": 0},
  {"point_id": "AP005", "name": "安亭路环网柜", "point_type": "环网柜", "feeder_id": "F004", "lng": 121.185, "lat": 31.362, "spare_intervals": 2, "distance_m": 0},
  {"point_id": "AP006", "name": "墨玉路开关站", "point_type": "开关站", "feeder_id": "F005", "lng": 121.183, "lat": 31.358, "spare_intervals": 5, "distance_m": 0},
  {"point_id": "AP007", "name": "嘉罗路杆塔#3", "point_type": "杆塔", "feeder_id": "F002", "lng": 121.260, "lat": 31.390, "spare_intervals": 0, "distance_m": 0},
  {"point_id": "AP008", "name": "平城路环网柜", "point_type": "环网柜", "feeder_id": "F006", "lng": 121.247, "lat": 31.376, "spare_intervals": 3, "distance_m": 0},
  {"point_id": "AP009", "name": "塔城路开关站", "point_type": "开关站", "feeder_id": "F006", "lng": 121.250, "lat": 31.374, "spare_intervals": 4, "distance_m": 0},
  {"point_id": "AP010", "name": "清河路杆塔#5", "point_type": "杆塔", "feeder_id": "F007", "lng": 121.245, "lat": 31.382, "spare_intervals": 0, "distance_m": 0},
  {"point_id": "AP011", "name": "新成路环网柜", "point_type": "环网柜", "feeder_id": "F007", "lng": 121.251, "lat": 31.384, "spare_intervals": 2, "distance_m": 0}
]
